{
"type": "FeatureCollection",
"crs": { "type": "name", "properties": { "name": "urn:ogc:def:crs:OGC:1.3:CRS84" } },
    

"features": [
{ "type": "Feature", "properties": { "Name": "Big Hill", "Source": "DOE, Office of Fossil Energy", "Capacity": 162.19999999999999, "Caverns": 14, "PADD": 3, "Data_Perio": "July 2015", "State": "TX" }, "geometry": { "type": "Point", "coordinates": [ -94.243791891598576, 29.749631011367814 ] } },
{ "type": "Feature", "properties": { "Name": "Bryan Mound", "Source": "DOE, Office of Fossil Energy", "Capacity": 242.09999999999999, "Caverns": 20, "PADD": 3, "Data_Perio": "July 2015", "State": "TX" }, "geometry": { "type": "Point", "coordinates": [ -95.377069086822885, 28.916479555697489 ] } },
{ "type": "Feature", "properties": { "Name": "West Hackberry", "Source": "DOE, Office of Fossil Energy", "Capacity": 213.19999999999999, "Caverns": 22, "PADD": 3, "Data_Perio": "July 2015", "State": "LA" }, "geometry": { "type": "Point", "coordinates": [ -93.4034050039714, 29.995327329352435 ] } },
{ "type": "Feature", "properties": { "Name": "Bayou Choctaw", "Source": "DOE, Office of Fossil Energy", "Capacity": 73.599999999999994, "Caverns": 7, "PADD": 3, "Data_Perio": "July 2015", "State": "LA" }, "geometry": { "type": "Point", "coordinates": [ -91.308244882972247, 30.316641756367357 ] } },


{ "type": "Feature", "properties": { "Name": "Buckeye Partners LP", "Source": "EIA NE Reserves List", "Capacity": 500, "State": "CT" }, "geometry": { "type": "Point", "coordinates": [ -72.076408, 41.336427 ] } },
{ "type": "Feature", "properties": { "Name": "Global Companies LLC", "Source": "EIA NE Reserves List", "Capacity": 500, "State": "MA" }, "geometry": { "type": "Point", "coordinates": [ -71.006927, 42.399859 ] } },
{ "type": "Feature", "properties": { "Name": "BP Products NA", "Source": "EIA NE Reserves List", "Capacity": 200, "State": "NJ" }, "geometry": { "type": "Point", "coordinates": [ -74.225325, 40.589046 ] } },
{ "type": "Feature", "properties": { "Name": "Buckeye Terminals LLC", "Source": "EIA NE Reserves List", "Capacity": 0, "State": "NJ" }, "geometry": { "type": "Point", "coordinates": [ -74.242234, 40.562075 ] } },
{ "type": "Feature", "properties": { "Name": "Buckeye Terminals LLC", "Source": "EIA NE Reserves List", "Capacity": 500, "State": "NJ" }, "geometry": { "type": "Point", "coordinates": [ -74.287166, 40.514034 ] } },
{ "type": "Feature", "properties": { "Name": "South Portland Terminal", "Source": "EIA NE Reserves List", "Capacity": 99, "State": "ME" }, "geometry": { "type": "Point", "coordinates": [ -70.285994, 43.636991 ] } }
]
}
